[
  {
    "name": "London",
    "latitude": 51.5074,
    "longitude": -0.1278,
    "dates": ["02/01/2024", "05/01/2024"],
    "attenders": ["Papa", "Mama", "Lesha", "Oksana"],
    "sites": ["Tower of London", "Tower Bridge", "The Shard", "City of London", "Buckingham Palace", "Big Ben", "Westminster Abbey", "Cutty Sark", "National Maritime Museum", "Prime Meridian", "Baker Street", "London Zoo", "Natural History Museum", "Science Museum", "River Thames", "Trafalgar Square"],
    "pictures": "London_24"
  },
  {
    "name": "Glasgow",
    "latitude": 55.8642,
    "longitude": -4.2518,
    "dates": ["10/02/2024", "12/02/2024"],
    "attenders": ["Papa", "Mama", "Lesha", "Oksana", "David"],
    "sites": ["Glasgow Science Centre", "Riverside Museum", "Glasgow Cathedral", "People's Palace", "University of Glasgow", "Finnieston Crane", "Hunterian Zoology Museum"],
    "pictures": "Glasgow_24"
  },
  {
    "name": "Loch Muick",
    "latitude": 56.996,
    "longitude": -3.425,
    "dates": ["30/03/2024", "30/03/2024"],
    "attenders": ["Papa", "Mama", "Lesha", "Oksana", "Graham"],
    "sites": ["Glas-allt-Shiel"],
    "pictures": "Highlands_24"
  },
  {
    "name": "Dundee",
    "latitude": 56.462,
    "longitude": -2.9707,
    "dates": ["14/04/2024", "14/04/2024"],
    "attenders": ["Papa", "Mama", "Lesha", "Oksana"],
    "sites": ["Discovery Point and RRS Discovery", "Dundee Maritime Trail", "Verdant Works Museum", "Dundee Law"],
    "pictures": "Dundee_24"
  },
  {
    "name": "Dunnottar",
    "latitude": 56.9469,
    "longitude": -2.197,
    "dates": ["05/05/2024", "05/05/2024"],
    "attenders": ["Papa", "Mama", "Lesha", "Oksana"],
    "sites": ["Dunnottar Castle"],
    "pictures": "Dunnotar_24"
  },
  {
    "name": "Stonehaven",
    "latitude": 56.964,
    "longitude": -2.211,
    "dates": ["05/05/2024", "05/05/2024"],
    "attenders": ["Papa", "Mama", "Lesha", "Oksana"],
    "sites": ["Stonehaven War Memorial", "Stonehaven Harbour", "Stonehaven Tolbooth Museum"],
    "pictures": "Stonehaven_24"
  },
  {
    "name": "Ballater",
    "latitude": 57.05,
    "longitude": -3.04,
    "dates": ["11/05/2024", "11/05/2024"],
    "attenders": ["Papa", "Mama", "Lesha", "Oksana"],
    "sites": [],
    "pictures": "Ballater_24"
  },
  {
    "name": "Balmoral",
    "latitude": 57.0397,
    "longitude": -3.2293,
    "dates": ["11/05/2024", "11/05/2024"],
    "attenders": ["Papa", "Mama", "Lesha", "Oksana"],
    "sites": ["Balmoral Castle"],
    "pictures": "Balmoral_24"
  },
  {
    "name": "Exeter",
    "latitude": 50.7184,
    "longitude": -3.5339,
    "dates": ["14/05/2024", "14/05/2024"],
    "attenders": ["Papa"],
    "sites": ["Exeter Quay", "Exeter Cathedral"],
    "pictures": "Exeter_24"
  },
  {
    "name": "Streatley",
    "latitude": 51.5237,
    "longitude": -1.144,
    "dates": ["14/05/2024", "15/05/2024"],
    "attenders": ["Papa"],
    "sites": ["Goring & Streatley Bridge"],
    "pictures": "Streatley_24"
  },
  {
    "name": "Oxford",
    "latitude": 51.752,
    "longitude": -1.2577,
    "dates": ["15/05/2024", "16/05/2024"],
    "attenders": ["Papa"],
    "sites": ["University of Oxford", "University Church of St Mary the Virgin", "The Sheldonian Theatre", "Oxford University Museum of Natural History"],
    "pictures": "Oxford_24"
  },
  {
    "name": "Windsor",
    "latitude": 51.4817,
    "longitude": -0.6142,
    "dates": ["16/05/2024", "16/05/2024"],
    "attenders": ["Papa"],
    "sites": ["Windsor Castle"],
    "pictures": "Windsor_24"
  },
  {
    "name": "Newburgh",
    "latitude": 56.349,
    "longitude": -3.239,
    "dates": ["19/05/2024", "19/05/2024"],
    "attenders": ["Papa", "Mama", "Lesha", "Oksana"],
    "sites": ["Newburgh Seal Beach", "Balmedie Beach"],
    "pictures": "Newburgh_24"
  },
  {
    "name": "Perth",
    "latitude": 56.3969,
    "longitude": -3.437,
    "dates": ["02/06/2024", "02/06/2024"],
    "attenders": ["Papa", "Mama", "Lesha", "Oksana"],
    "sites": ["Perth Museum", "Perth Art Gallery", "Norie-Miller Walk", "Bellwood Riverside Park", "South Inch Park"],
    "pictures": "Perth_24"
  },
  {
    "name": "Lancaster",
    "latitude": 54.047,
    "longitude": -2.801,
    "dates": ["27/07/2024", "28/07/2024"],
    "attenders": ["Papa", "Mama", "Lesha", "Oksana"],
    "sites": ["Williamson Park", "Lancaster City Museum", "Lancaster Castle", "Lancaster Maritime Museum"],
    "pictures": "Lancaster_24"
  },
  {
    "name": "Morecambe",
    "latitude": 54.0718,
    "longitude": -2.8633,
    "dates": ["27/07/2024", "27/07/2024"],
    "attenders": ["Papa", "Mama", "Lesha", "Oksana"],
    "sites": ["Eric Morecambe Statue"],
    "pictures": "Morecambe_24"
  },
  {
    "name": "Douglas",
    "latitude": 54.1523,
    "longitude": -4.4861,
    "dates": ["28/07/2024", "31/07/2024"],
    "attenders": ["Papa", "Mama", "Lesha", "Oksana"],
    "sites": ["Nobles Park", "Manx Museum", "Manx Electric Railway"],
    "pictures": "Douglas_24"
  },
  {
    "name": "Snaefell",
    "latitude": 54.2619,
    "longitude": -4.4625,
    "dates": ["29/07/2024", "29/07/2024"],
    "attenders": ["Papa", "Mama", "Lesha", "Oksana"],
    "sites": ["Snaefell summit"],
    "pictures": "Snaefell_24"
  },
  {
    "name": "Laxey",
    "latitude": 54.231,
    "longitude": -4.4068,
    "dates": ["29/07/2024", "29/07/2024"],
    "attenders": ["Papa", "Mama", "Lesha", "Oksana"],
    "sites": ["The Great Laxey Wheel"],
    "pictures": "Laxey_24"
  },
  {
    "name": "Ramsey",
    "latitude": 54.3228,
    "longitude": -4.3858,
    "dates": ["29/07/2024", "29/07/2024"],
    "attenders": ["Papa", "Mama", "Lesha", "Oksana"],
    "sites": ["Grove Museum", "Ramsey Lighthouses"],
    "pictures": "Ramsey_24"
  },
  {
    "name": "Peel",
    "latitude": 54.2236,
    "longitude": -4.6986,
    "dates": ["30/07/2024", "30/07/2024"],
    "attenders": ["Papa", "Mama", "Lesha", "Oksana"],
    "sites": ["House of Manannan", "Peel Castle", "Peel Beach"],
    "pictures": "Peel_24"
  },
  {
    "name": "Belfast",
    "latitude": 54.5973,
    "longitude": -5.9301,
    "dates": ["31/07/2024", "03/08/2024"],
    "attenders": ["Papa", "Mama", "Lesha", "Oksana"],
    "sites": ["Titanic Belfast", "HMS Caroline", "SS Nomadic", "Belfast City Hall", "St George's Market", "Ulster Museum"],
    "pictures": "Belfast_24"
  },
  {
    "name": "Giant's Causeway",
    "latitude": 55.2408,
    "longitude": -6.5116,
    "dates": ["01/08/2024", "01/08/2024"],
    "attenders": ["Papa", "Mama", "Lesha", "Oksana"],
    "sites": ["Giant's Causeway"],
    "pictures": "GiantsCauseway_24"
  },
  {
    "name": "Carrick-a-Rede",
    "latitude": 55.2396,
    "longitude": -6.332,
    "dates": ["01/08/2024", "01/08/2024"],
    "attenders": ["Papa", "Mama", "Lesha", "Oksana"],
    "sites": ["Carrick-a-Rede"],
    "pictures": "Carrick-a-Rede_24"
  },
  {
    "name": "Portrush",
    "latitude": 55.204,
    "longitude": -6.6557,
    "dates": ["01/08/2024", "01/08/2024"],
    "attenders": ["Papa", "Mama", "Lesha", "Oksana"],
    "sites": ["Curry's Fun Park", "Portrush Harbour"],
    "pictures": "Portrush_24"
  },
  {
    "name": "Derry",
    "latitude": 54.9966,
    "longitude": -7.3086,
    "dates": ["02/08/2024", "02/08/2024"],
    "attenders": ["Papa", "Mama", "Lesha", "Oksana"],
    "sites": ["Derry Guildhall", "St Columb's Cathedral", "The Derry Walls", "Free Derry Corner", "War Memorial", "Tower Museum", "St Eugene's Cathedral", "Ulster University", "Peace Bridge", "Craigavon Bridge"],
    "pictures": "Derry_24"
  },
  {
    "name": "Glasgow",
    "latitude": 55.8642,
    "longitude": -4.2518,
    "dates": ["03/08/2024", "03/08/2024"],
    "attenders": ["Papa", "Mama", "Lesha", "Oksana"],
    "sites": ["Buchanan Street", "Clyde waterfront"],
    "pictures": "Glasgow_24_2"
  },
  {
    "name": "Peterhead",
    "latitude": 57.5058,
    "longitude": -1.7805,
    "dates": ["01/09/2024", "01/09/2024"],
    "attenders": ["Papa", "Mama", "Lesha", "Oksana"],
    "sites": ["Longhaven Cliffs", "Buchan Ness Lighthouse", "Peterhead Prison Museum", "Peterhead"],
    "pictures": "Peterhead_24"
  },
  {
    "name": "Stirling",
    "latitude": 56.1165,
    "longitude": -3.9369,
    "dates": ["22/09/2024", "22/09/2024"],
    "attenders": ["Papa", "Mama", "Lesha", "Oksana"],
    "sites": ["The National Wallace Monument", "Stirling Old Bridge", "Stirling Castle", "Beheading Stone"],
    "pictures": "Stirling_24_1"
  },
  {
    "name": "London",
    "latitude": 51.5074,
    "longitude": -0.1278,
    "dates": ["17/10/2024", "20/10/2024"],
    "attenders": ["Papa", "Mama", "Lesha", "Oksana"],
    "sites": ["City", "Excel", "Cable car", "Shard", "British museum", "Thorpe Park"],
    "pictures": "London_Oct24"
  },
  {
    "name": "Watford",
    "latitude": 51.692932,
    "longitude": -0.417248,
    "dates": ["18/10/2024", "18/10/2024"],
    "attenders": ["Papa", "Mama", "Lesha", "Oksana"],
    "sites": ["Harry Potter Studio"],
    "pictures": "Watford_24"
  },
  {
    "name": "Stirling",
    "latitude": 56.09259,
    "longitude": -3.93539,
    "dates": ["25/10/2024", "25/10/2024"],
    "attenders": ["Papa", "Mama", "Lesha", "Oksana"],
    "sites": ["The Battle of Bannockburn Visitor Centre"],
    "pictures": "Stirling_24_2"
  },
  {
    "name": "Falkirk",
    "latitude": 56.0008,
    "longitude": -3.841,
    "dates": ["25/10/2024", "25/10/2024"],
    "attenders": ["Papa", "Mama", "Lesha", "Oksana"],
    "sites": ["Falkirk Wheel"],
    "pictures": "Falkirk_24"
  },
  {
    "name": "Kelpies",
    "latitude": 56.0189,
    "longitude": -3.7558,
    "dates": ["25/10/2024", "25/10/2024"],
    "attenders": ["Papa", "Mama", "Lesha", "Oksana"],
    "sites": ["The Kelpies"],
    "pictures": "Kelpies_24"
  },
  {
    "name": "Boness",
    "latitude": 56.0169,
    "longitude": -3.6086,
    "dates": ["25/10/2024", "25/10/2024"],
    "attenders": ["Papa", "Mama", "Lesha", "Oksana"],
    "sites": ["Museum of Scottish Railways"],
    "pictures": "Boness_24"
  },
  {
    "name": "Edinburgh",
    "latitude": 55.9533,
    "longitude": -3.1883,
    "dates": ["26/10/2024", "26/10/2024"],
    "attenders": ["Papa", "Mama", "Lesha", "Oksana"],
    "sites": ["Edinburgh Zoo", "Arthur's Seat"],
    "pictures": "Edinburgh_24"
  },
  {
    "name": "Dunfermline",
    "latitude": 56.0717,
    "longitude": -3.4522,
    "dates": ["30/10/2024", "30/10/2024"],
    "attenders": ["Papa"],
    "sites": ["Dunfermline Abbey and Palace", "Pittencrieff Park"],
    "pictures": "Dunfermline_24"
  },
  {
    "name": "Newcastle",
    "latitude": 54.9783,
    "longitude": -1.6178,
    "dates": ["28/12/2024", "30/12/2024"],
    "attenders": ["Papa", "Mama", "Lesha", "Oksana"],
    "sites": ["Newcastle Castle", "Newcastle Cathedral", "Gateshead Millennium Bridge", "Baltic Centre for Contemporary Art", "Tyne Bridge", "St James Park", "Great North Museum Hancock"],
    "pictures": "Newcastle_24"
  },
  {
    "name": "Sunderland",
    "latitude": 54.9069,
    "longitude": -1.3838,
    "dates": ["29/12/2024", "29/12/2024"],
    "attenders": ["Papa", "Mama", "Lesha", "Oksana"],
    "sites": ["National Glass Centre", "Monkwearmouth Railway Bridge", "Roker Beach", "Mowbray Park"],
    "pictures": "Sanderland_24"
  },
  {
    "name": "Cirali",
    "latitude": 36.417,
    "longitude": 30.477,
    "dates": ["28/06/2024", "28/06/2024"],
    "attenders": ["Papa", "Mama", "Lesha", "Oksana"],
    "sites": ["Olympos Ancient City"],
    "pictures": "Cirali_24"
  },
  {
    "name": "Antalya",
    "latitude": 36.8969,
    "longitude": 30.7133,
    "dates": ["23/06/2024", "30/06/2024"],
    "attenders": ["Papa", "Mama", "Lesha", "Oksana", "Dedushka", "Babushka Luba"],
    "sites": ["Antalya Aquarium", "Antalya Toy Museum", "Mustafa Kemal Monument", "Ozgur Kopek Oyun Park", "Antalya Ethnographic Museum"],
    "pictures": "Antalya_24"
  },
  {
    "name": "London",
    "latitude": 51.5074,
    "longitude": -0.1278,
    "dates": ["28/09/2023", "29/09/2023"],
    "attenders": ["Papa"],
    "sites": ["London City", "Greenwich"],
    "pictures": "London_23"
  },
  {
    "name": "London",
    "latitude": 51.5074,
    "longitude": -0.1278,
    "dates": ["31/07/2023", "03/08/2023"],
    "attenders": ["Papa"],
    "sites": ["Westminster", "Albert Embankment", "Buckingham Palace", "Trafalgar Square", "Natural History Museum", "Hyde Park", "Shell building"],
    "pictures": "London_23"
  },
  {
    "name": "Fort George",
    "latitude": 57.6206,
    "longitude": -4.0884,
    "dates": ["25/11/2023", "25/11/2023"],
    "attenders": ["Papa", "Mama", "Lesha", "Oksana"],
    "sites": ["Fort George"],
    "pictures": "FortGeorge_23"
  },
  {
    "name": "Inverness",
    "latitude": 57.4778,
    "longitude": -4.2247,
    "dates": ["25/11/2023", "25/11/2023"],
    "attenders": ["Papa", "Mama", "Lesha", "Oksana"],
    "sites": ["Inverness Cathedral", "Ness Islands"],
    "pictures": "Inverness_23"
  },
  {
    "name": "Edinburgh",
    "latitude": 55.9533,
    "longitude": -3.1883,
    "dates": ["17/10/2023", "17/10/2023"],
    "attenders": ["Papa", "Mama", "Lesha", "Oksana"],
    "sites": ["Edinburgh Castle", "National Museum of Scotland"],
    "pictures": "Edinburgh_23_2"
  },
  {
    "name": "Edinburgh",
    "latitude": 55.9533,
    "longitude": -3.1883,
    "dates": ["11/07/2023", "12/07/2023"],
    "attenders": ["Papa"],
    "sites": ["National Galleries of Scotland", "National Monument of Scotland", "Lawnmarket", "The Royal Yacht Britannia"],
    "pictures": "Edinburgh_23"
  },
  {
    "name": "Langevag",
    "latitude": 59.60215,
    "longitude": 5.2081,
    "dates": ["31/08/2023", "01/09/2023"],
    "attenders": ["Papa"],
    "sites": ["Bomlo"],
    "pictures": "Bomlo_23"
  },
  {
    "name": "York",
    "latitude": 53.959,
    "longitude": -1.0815,
    "dates": ["24/12/2025", "28/12/2025"],
    "attenders": ["Papa", "Mama", "Lesha", "Oksana"],
    "sites": [
      "Clifford's Tower",
      "Shambles",
      "York City Walls",
      "Minster Yard",
      "York Minster",
      "JORVIK Viking Centre",
      "National Railway Museum"
    ],
    "pictures": "York_25"
  },
  {
    "name": "Hull",
    "latitude": 53.7676,
    "longitude": -0.3274,
    "dates": ["27/12/2025", "27/12/2025"],
    "attenders": ["Papa", "Mama", "Lesha", "Oksana"],
    "sites": ["The Deep (oceanarium)", "Hull Minster"],
    "pictures": "Hull_25"
  },
  {
    "name": "Leeds",
    "latitude": 53.8008,
    "longitude": -1.5491,
    "dates": ["27/12/2025", "27/12/2025"],
    "attenders": ["Papa", "Mama", "Lesha", "Oksana"],
    "sites": [
      "Leeds Cathedral",
      "Leeds Corn Exchange",
      "Leeds Minster",
      "Thackray Museum of Medicine"
    ],
    "pictures": "Leeds_25"
  },
  {
    "name": "Wrexham",
    "latitude": 53.046,
    "longitude": -2.992,
    "dates": ["11/10/2025", "11/10/2025"],
    "attenders": ["Papa", "Mama", "Lesha", "Oksana"],
    "sites": ["St Giles Church", "Miners Monument", "Racecourse Ground(stadium)"],
    "pictures": "Wrexham_25"
  },
  {
    "name": "Pontcysyllte Aqueduct",
    "latitude": 52.9706,
    "longitude": -3.0888,
    "dates": ["12/10/2025", "12/10/2025"],
    "attenders": ["Papa", "Mama", "Lesha", "Oksana"],
    "sites": ["Pontcysyllte Aqueduct"],
    "pictures": "Pontcysyllte_25"
  },
  {
    "name": "Betws-y-Coed",
    "latitude": 53.0929,
    "longitude": -3.8015,
    "dates": ["12/10/2025", "12/10/2025"],
    "attenders": ["Papa", "Mama", "Lesha", "Oksana"],
    "sites": [
      "Zip World Betws-y-Coed",
      "Conwy Valley Railway Museum",
      "Swallow falls"
    ],
    "pictures": "Betws-y-Coed_25"
  },
  {
    "name": "Caernarfon",
    "latitude": 53.1398,
    "longitude": -4.2739,
    "dates": ["13/10/2025", "16/10/2025"],
    "attenders": ["Papa", "Mama", "Lesha", "Oksana"],
    "sites": [],
    "pictures": "Caernarfon_25"
  },
  {
    "name": "Holy Island",
    "latitude": 53.307,
    "longitude": -4.6321,
    "dates": ["13/10/2025", "13/10/2025"],
    "attenders": ["Papa", "Mama", "Lesha", "Oksana"],
    "sites": [
      "Holyhead",
      "St Cybi’s Church",
      "Holyhead Breakwater",
      "Breakwater Country Park",
      "North Stack Lighthouse",
      "South Stack Lighthouse"
    ],
    "pictures": "HolyIsland_25"
  },
  {
    "name": "Llanfairpwllgwyngyll",
    "latitude": 53.2215,
    "longitude": -4.2094,
    "dates": ["13/10/2025", "13/10/2025"],
    "attenders": ["Papa", "Mama", "Lesha", "Oksana"],
    "sites": ["Llanfairpwllgwyngyllgogerychwyrndrobwllllantysiliogogogoch Station"],
    "pictures": "Llanfairpwllgwyngyll_25"
  },
  {
    "name": "Bethesda",
    "latitude": 53.181,
    "longitude": -4.062,
    "dates": ["14/10/2025", "14/10/2025"],
    "attenders": ["Papa", "Lesha"],
    "sites": ["Bethesda town", "Zip World Penrhyn Quarry"],
    "pictures": "Bethesda_25"
  },
  {
    "name": "Bangor",
    "latitude": 53.228,
    "longitude": -4.129,
    "dates": ["14/10/2025", "14/10/2025"],
    "attenders": ["Papa", "Mama", "Lesha", "Oksana"],
    "sites": ["Menai Bridge"],
    "pictures": "Bangor_25"
  },
  {
    "name": "Snowdon",
    "latitude": 53.0685,
    "longitude": -4.076,
    "dates": ["15/10/2025", "15/10/2025"],
    "attenders": ["Papa", "Mama", "Lesha", "Oksana"],
    "sites": ["Minors' track", "Snowdon summit"],
    "pictures": "Snowdon_25"
  },
  {
    "name": "Llanberis",
    "latitude": 53.119,
    "longitude": -4.127,
    "dates": ["15/10/2025", "15/10/2025"],
    "attenders": ["Papa", "Mama", "Lesha", "Oksana"],
    "sites": ["Ceunant Mawr waterfall", "Llyn Padarn"],
    "pictures": "Llanberis_25"
  },
  {
    "name": "Rhaeadr Fawr",
    "latitude": 53.2105389,
    "longitude": -3.9949639,
    "dates": ["16/10/2025", "16/10/2025"],
    "attenders": ["Papa", "Mama", "Lesha", "Oksana"],
    "sites": ["Aber Falls"],
    "pictures": "RhaeadrFawr_25"
  },
  {
    "name": "Penrhyn Castle",
    "latitude": 53.2275,
    "longitude": -4.0946,
    "dates": ["16/10/2025", "16/10/2025"],
    "attenders": ["Papa", "Mama", "Lesha", "Oksana"],
    "sites": ["Penrhyn Castle & Garden"],
    "pictures": "PenrhynCastle_25"
  },
  {
    "name": "Conwy",
    "latitude": 53.2808,
    "longitude": -3.827,
    "dates": ["17/10/2025", "17/10/2025"],
    "attenders": ["Papa", "Mama", "Lesha", "Oksana"],
    "sites": [
      "The Smallest House In Great Britain",
      "St Mary’s Church",
      "Conwy Town Walls",
      "Conwy Castle",
      "Conwy Suspension Bridge"
    ],
    "pictures": "Conwy_25"
  },
  {
    "name": "Llandudno",
    "latitude": 53.3241,
    "longitude": -3.8276,
    "dates": ["17/10/2025", "17/10/2025"],
    "attenders": ["Papa", "Mama", "Lesha", "Oksana"],
    "sites": [
      "West Shore Beach",
      "Great Orme",
      "Llandudno Promenade",
      "Llandudno Pier"
    ],
    "pictures": "Llandudno_25"
  },
  {
    "name": "Blackpool",
    "latitude": 53.8175,
    "longitude": -3.0357,
    "dates": ["18/10/2025", "18/10/2025"],
    "attenders": ["Papa", "Mama", "Lesha", "Oksana"],
    "sites": ["Blackpool Pleasure Beach", "The Blackpool Tower"],
    "pictures": "Blackpool_25"
  },
  {
    "name": "Fort William",
    "latitude": 56.8198,
    "longitude": -5.1052,
    "dates": ["30/08/2025", "31/08/2025"],
    "attenders": ["Papa", "Mama", "Lesha", "Oksana"],
    "sites": [
      "West Highland Museum",
      "Cameron Square",
      "Old Inverlochy Castle",
      "Neptune's Staircase",
      "Caol beach"
    ],
    "pictures": "FortWilliam_25"
  },
  {
    "name": "Mallaig",
    "latitude": 57.0054,
    "longitude": -5.83,
    "dates": ["30/08/2025", "30/08/2025"],
    "attenders": ["Papa", "Mama", "Lesha", "Oksana"],
    "sites": ["Mallaig village", "Glenfinnan Viaduct"],
    "pictures": "Mallaig_25"
  },
  {
    "name": "Ben Nevis",
    "latitude": 56.7969,
    "longitude": -5.0036,
    "dates": ["31/08/2025", "31/08/2025"],
    "attenders": ["Papa", "Mama", "Lesha", "Oksana"],
    "sites": ["Visitor centre", "Ben Nevis peak"],
    "pictures": "BenNevis_25"
  },
  {
    "name": "Fort Augustus",
    "latitude": 57.1443,
    "longitude": -4.6808,
    "dates": ["01/09/2025", "01/09/2025"],
    "attenders": ["Papa", "Mama", "Lesha", "Oksana"],
    "sites": [
      "Loch Ness View Point",
      "Fort Augustus Locks",
      "Loch Ness and Fort Augustus viewpoint"
    ],
    "pictures": "FortAugustus_25"
  },
  {
    "name": "Urquhart Castle",
    "latitude": 57.324,
    "longitude": -4.4413,
    "dates": ["01/09/2025", "01/09/2025"],
    "attenders": ["Papa", "Mama", "Lesha", "Oksana"],
    "sites": ["Urquhart Castle"],
    "pictures": "UrquhartCastle_25"
  },
  {
    "name": "Arbroath",
    "latitude": 56.5591,
    "longitude": -2.5884,
    "dates": ["10/08/2025", "10/08/2025"],
    "attenders": ["Papa", "Mama", "Lesha", "Oksana"],
    "sites": [
      "Arbroath Abbey",
      "Signal Tower Museum",
      "West Links Beach",
      "Arbroath Cliffs"
    ],
    "pictures": "Arbroath_25"
  },
  {
    "name": "Fraserburgh",
    "latitude": 57.6922,
    "longitude": -2.0059,
    "dates": ["25/08/2025", "25/08/2025"],
    "attenders": ["Papa"],
    "sites": [
      "Museum Of Scottish Lighthouses",
      "Saltoun Square",
      "Fraserburgh port"
    ],
    "pictures": "Fraserburgh_25"
  },
  {
    "name": "Heathhall",
    "latitude": 55.0945,
    "longitude": -3.584,
    "dates": ["03/05/2025", "03/05/2025"],
    "attenders": ["Papa", "Mama", "Lesha", "Oksana"],
    "sites": [
      "Dumfries & Galloway Aviation Museum",
      "The Little Bakery"
    ],
    "pictures": "Heathhall_25"
  },
  {
    "name": "Dumfries",
    "latitude": 55.0709,
    "longitude": -3.6051,
    "dates": ["03/05/2025", "06/05/2025"],
    "attenders": ["Papa", "Mama", "Lesha", "Oksana"],
    "sites": [
      "Robert Burns House",
      "Robert Burns Statue",
      "Dumfries Museum and Camera Obscura",
      "Burns Mausoleum",
      "Devorgilla Bridge",
      "Kirkpatrick Macmillan Bridge",
      "University of the West of Scotland",
      "Crichton Memorial Church"
    ],
    "pictures": "Dumfries_25"
  },
  {
    "name": "Carlisle",
    "latitude": 54.8925,
    "longitude": -2.9329,
    "dates": ["05/05/2025", "05/05/2025"],
    "attenders": ["Papa", "Mama", "Lesha", "Oksana"],
    "sites": [
      "Carlisle Cathedral",
      "Carlisle Castle",
      "Cumbria's Museum of Military Life",
      "Bitts Park",
      "Tullie - Museum & Gallery",
      "Rickerby Park"
    ],
    "pictures": "Carlisle_25"
  },
  {
    "name": "Alloway",
    "latitude": 55.4276,
    "longitude": -4.6525,
    "dates": ["06/05/2025", "06/05/2025"],
    "attenders": ["Papa", "Lesha", "Oksana"],
    "sites": [
      "Rozelle House",
      "Burns Cottage",
      "Robert Burns Birthplace Museum",
      "Brig o'Doon",
      "Burns Monument",
      "Alloway Auld Kirk"
    ],
    "pictures": "Alloway_25"
  },
  {
    "name": "Air",
    "latitude": 55.4586,
    "longitude": -4.6292,
    "dates": ["06/05/2025", "06/05/2025"],
    "attenders": ["Papa", "Lesha", "Oksana"],
    "sites": ["Ayr Beach"],
    "pictures": "Ayr_25"
  },
  {
    "name": "Brechin",
    "latitude": 56.7326,
    "longitude": -2.6576,
    "dates": ["20/04/2025", "20/04/2025"],
    "attenders": ["Papa", "Mama", "Lesha", "Oksana"],
    "sites": ["Brechin Cathedral"],
    "pictures": "Brechin_25"
  },
  {
    "name": "Montrose",
    "latitude": 56.7069,
    "longitude": -2.4677,
    "dates": ["20/04/2025", "20/04/2025"],
    "attenders": ["Papa", "Mama", "Lesha", "Oksana"],
    "sites": [
      "Montrose Basin Visitor Centre",
      "Montrose Bridge",
      "Ferryden Viaduct",
      "Montrose Museum",
      "Montrose Beach"
    ],
    "pictures": "Montrose_25"
  }
]
